{
    "members": [
      {
        "id": 1,
        "name": "The Little Flower Shop",
        "address": "425 Main St, Windsor, CO 80550",
        "phone": "(970) 686-2400",
        "website": "https://www.thelittleflowershopwindsor.com",
        "image": "https://www.flowershopping.com/media//banners/Same_Day_Flowers_1.jpg",
        "membershipLevel": "Gold",
        "category": "Retail",
        "established": 2012,
        "description": "Locally owned florist offering beautiful fresh arrangements, plants, and gifts for all occasions.",
        "hours": "Monday-Friday: 9AM-5PM, Saturday: 9AM-2PM"
      },
      {
        "id": 2,
        "name": "Frae & Co Salon + Extensions",
        "address": "1215 Main St, Windsor, CO 80550",
        "phone": "(970) 460-0063",
        "website": "https://www.fraeandco.com",
        "image": "frae.jpg",
        "membershipLevel": "Platinum",
        "category": "Beauty & Wellness",
        "established": 2018,
        "description": "Full-service salon specializing in hair extensions, color services, and bridal styling.",
        "hours": "Tuesday-Saturday: 10AM-7PM"
      },
      {
        "id": 3,
        "name": "Windsor Mill Tavern",
        "address": "301 Main St, Windsor, CO 80550",
        "phone": "(970) 686-5555",
        "website": "https://www.windsormill.com",
        "image": "tavern.jpg",
        "membershipLevel": "Silver",
        "category": "Food & Beverage",
        "established": 2019,
        "description": "Historic tavern serving craft beers, cocktails, and contemporary American cuisine in a restored mill building.",
        "hours": "Tuesday-Sunday: 11AM-10PM"
      },
      {
        "id": 4,
        "name": "Windsor Hardware & Supply",
        "address": "520 Main St, Windsor, CO 80550",
        "phone": "(970) 686-7771",
        "website": "https://www.windsorhardware.com",
        "image": "https://th.bing.com/th/id/OIP.wHsorHF5NMp6rfed1N4pzwHaEb?rs=1&pid=ImgDetMain",
        "membershipLevel": "Gold",
        "category": "Retail",
        "established": 1995,
        "description": "Family-owned hardware store offering tools, home improvement supplies, and expert advice.",
        "hours": "Monday-Saturday: 8AM-6PM, Sunday: 10AM-4PM"
      },
      {
        "id": 5,
        "name": "Windsor Animal Hospital",
        "address": "1635 Main St, Windsor, CO 80550",
        "phone": "(970) 686-9266",
        "website": "https://www.windsorvet.com",
        "image": "vet.png",
        "membershipLevel": "Platinum",
        "category": "Pet Services",
        "established": 2001,
        "description": "Comprehensive veterinary care including preventative services, surgery, and emergency treatment.",
        "hours": "Monday-Friday: 8AM-6PM, Saturday: 8AM-12PM"
      },
      { 
        "id": 6,
        "name": "Windsor Farmers Market",
        "address": "100 N 5th St, Windsor, CO 80550",
        "phone": "(970) 674-3500",
        "website": "https://www.windsorfarmersmarket.com",
        "image": "https://www.recreationliveshere.com/ImageRepository/Document?documentId=1359",
        "membershipLevel": "Bronze",
        "category": "Agriculture & Food",
        "established": 2008,
        "description": "Seasonal market featuring local produce, artisan foods, and handcrafted goods.",
        "hours": "Saturday: 9AM-1PM (June-September)"
    },
    {
    "id": 7,
    "name": "Hearth Restaurant & Pub",
    "address": "205 4th St, Windsor, CO 80550",
    "phone": "(970) 674-9733",
    "website": "https://www.hearthwindsor.com",
    "image": "http://www.hearthrestaurantandpub.com/wp-content/uploads/2015/09/HEA0001_05282015_Logo-HORIZONTAL-tagline-TRANSPARENT.png",
    "membershipLevel": "Silver",
    "category": "Food & Beverage",
    "established": 2016,
    "description": "Cozy gastropub featuring wood-fired specialties, local craft beers, and seasonal ingredients.",
    "hours": "Tuesday-Sunday: 11AM-9PM"
    }
  ]
}